{
  "cities": [
    {
      "cityName": "Lisbon",
      "country": "Portugal",
      "emoji": "ðŸ‡µðŸ‡¹",
      "date": "2027-10-31T15:59:59.138Z",
      "notes": "My favorite city so far!",
      "position": {
        "lat": 38.727881642324164,
        "lng": -9.140900099907554
      },
      "id": "73930385"
    },
    {
      "cityName": "Madrid",
      "country": "Spain",
      "emoji": "ðŸ‡ªðŸ‡¸",
      "date": "2027-07-15T08:22:53.976Z",
      "notes": "",
      "position": {
        "lat": 40.46635901755316,
        "lng": -3.7133789062500004
      },
      "id": "17806751"
    },
    {
      "cityName": "Berlin",
      "country": "Germany",
      "emoji": "ðŸ‡©ðŸ‡ª",
      "date": "2027-02-12T09:24:11.863Z",
      "notes": "Amazing ðŸ˜ƒ",
      "position": {
        "lat": 52.53586782505711,
        "lng": 13.376933665713324
      },
      "id": "98443197"
    },
    {
      "id": "2cf8",
      "cityName": "Roches",
      "country": "France",
      "emoji": "ðŸ‡«ðŸ‡·",
      "date": "2024-10-13T18:53:28.000Z",
      "notes": "test",
      "latitude": "46.27483447871404",
      "longitude": "1.9775390625000002",
      "position": {
        "lat": "46.27483447871404",
        "lng": "1.9775390625000002"
      }
    },
    {
      "id": "952e",
      "cityName": "Clewiston",
      "country": "United States of America (the)",
      "emoji": "ðŸ‡ºðŸ‡¸",
      "date": "2025-03-15T19:18:09.120Z",
      "notes": "dfdfd",
      "latitude": "26.745610382199022",
      "longitude": "-80.94726562500001",
      "position": {
        "lat": "26.745610382199022",
        "lng": "-80.94726562500001"
      }
    },
    {
      "id": "cc6f",
      "cityName": "Ghan",
      "country": "Australia",
      "emoji": "ðŸ‡¦ðŸ‡º",
      "date": "2025-03-15T19:33:56.730Z",
      "notes": "dfdfdf",
      "latitude": "-24.766784522874442",
      "longitude": "135.08789062500003",
      "position": {
        "lat": "-24.766784522874442",
        "lng": "135.08789062500003"
      }
    },
    {
      "id": "dfcb",
      "cityName": "Nicholson",
      "country": "Australia",
      "emoji": "ðŸ‡¦ðŸ‡º",
      "date": "2025-03-15T19:34:09.136Z",
      "notes": "dsdsds",
      "latitude": "-19.186677697957833",
      "longitude": "136.66992187500003",
      "position": {
        "lat": "-19.186677697957833",
        "lng": "136.66992187500003"
      }
    }
  ]
}