{
  "cities": [
    {
      "cityName": "Lisbon",
      "country": "Portugal",
      "emoji": "ðŸ‡µðŸ‡¹",
      "date": "2027-10-31T15:59:59.138Z",
      "notes": "My favorite city so far!",
      "position": {
        "lat": 38.727881642324164,
        "lng": -9.140900099907554
      },
      "id": "73930385"
    },
    {
      "cityName": "Madrid",
      "country": "Spain",
      "emoji": "ðŸ‡ªðŸ‡¸",
      "date": "2027-07-15T08:22:53.976Z",
      "notes": "",
      "position": {
        "lat": 40.46635901755316,
        "lng": -3.7133789062500004
      },
      "id": "17806751"
    },
    {
      "cityName": "Berlin",
      "country": "Germany",
      "emoji": "ðŸ‡©ðŸ‡ª",
      "date": "2027-02-12T09:24:11.863Z",
      "notes": "Amazing ðŸ˜ƒ",
      "position": {
        "lat": 52.53586782505711,
        "lng": 13.376933665713324
      },
      "id": "98443197"
    },
    {
      "id": "2cf8",
      "cityName": "Roches",
      "country": "France",
      "emoji": "ðŸ‡«ðŸ‡·",
      "date": "2024-10-13T18:53:28.000Z",
      "notes": "test",
      "latitude": "46.27483447871404",
      "longitude": "1.9775390625000002",
      "position": {
        "lat": "46.27483447871404",
        "lng": "1.9775390625000002"
      }
    },
    {
      "id": "952e",
      "cityName": "Clewiston",
      "country": "United States of America (the)",
      "emoji": "ðŸ‡ºðŸ‡¸",
      "date": "2025-03-15T19:18:09.120Z",
      "notes": "dfdfd",
      "latitude": "26.745610382199022",
      "longitude": "-80.94726562500001",
      "position": {
        "lat": "26.745610382199022",
        "lng": "-80.94726562500001"
      }
    },
    {
      "id": "dfcb",
      "cityName": "Nicholson",
      "country": "Australia",
      "emoji": "ðŸ‡¦ðŸ‡º",
      "date": "2025-03-15T19:34:09.136Z",
      "notes": "dsdsds",
      "latitude": "-19.186677697957833",
      "longitude": "136.66992187500003",
      "position": {
        "lat": "-19.186677697957833",
        "lng": "136.66992187500003"
      }
    },
    {
      "id": "1cd9",
      "cityName": "Cabaiguan",
      "country": "Cuba",
      "emoji": "ðŸ‡¨ðŸ‡º",
      "date": "2025-04-20T23:08:49.882Z",
      "notes": "",
      "latitude": "22.207749178410857",
      "longitude": "-79.43115234375001",
      "position": {
        "lat": "22.207749178410857",
        "lng": "-79.43115234375001"
      }
    },
    {
      "id": "7ef8",
      "cityName": "Montego Bay",
      "country": "Jamaica",
      "emoji": "ðŸ‡¯ðŸ‡²",
      "date": "2025-04-20T23:08:58.598Z",
      "notes": "",
      "latitude": "18.458768120015137",
      "longitude": "-77.91503906250001",
      "position": {
        "lat": "18.458768120015137",
        "lng": "-77.91503906250001"
      }
    },
    {
      "id": "89db",
      "cityName": "Caicara del Orinoco",
      "country": "Venezuela (Bolivarian Republic of)",
      "emoji": "ðŸ‡»ðŸ‡ª",
      "date": "2025-04-20T23:09:11.915Z",
      "notes": "",
      "latitude": "7.27529233637217",
      "longitude": "-66.35742187500001",
      "position": {
        "lat": "7.27529233637217",
        "lng": "-66.35742187500001"
      }
    },
    {
      "id": "423a",
      "cityName": "Guyana",
      "country": "Guyana",
      "emoji": "ðŸ‡¬ðŸ‡¾",
      "date": "2025-04-20T23:09:17.967Z",
      "notes": "",
      "latitude": "6.839169626342808",
      "longitude": "-58.18359375",
      "position": {
        "lat": "6.839169626342808",
        "lng": "-58.18359375"
      }
    }
  ]
}