{
  "cities": [
    {
      "cityName": "Lisbon",
      "country": "Portugal",
      "emoji": "ðŸ‡µðŸ‡¹",
      "date": "2027-10-31T15:59:59.138Z",
      "notes": "My favorite city so far!",
      "position": {
        "lat": 38.727881642324164,
        "lng": -9.140900099907554
      },
      "id": "73930385"
    },
    {
      "cityName": "Madrid",
      "country": "Spain",
      "emoji": "ðŸ‡ªðŸ‡¸",
      "date": "2027-07-15T08:22:53.976Z",
      "notes": "",
      "position": {
        "lat": 40.46635901755316,
        "lng": -3.7133789062500004
      },
      "id": "17806751"
    },
    {
      "cityName": "Berlin",
      "country": "Germany",
      "emoji": "ðŸ‡©ðŸ‡ª",
      "date": "2027-02-12T09:24:11.863Z",
      "notes": "Amazing ðŸ˜ƒ",
      "position": {
        "lat": 52.53586782505711,
        "lng": 13.376933665713324
      },
      "id": "98443197"
    },
    {
      "id": "f3e9",
      "cityName": "Chodow",
      "country": "Poland",
      "emoji": "ðŸ‡µðŸ‡±",
      "date": "2025-03-15T18:42:02.352Z",
      "notes": "terte",
      "latitude": "52.214338608258224",
      "longitude": "19.072265625000004",
      "position": {
        "lat": "52.214338608258224",
        "lng": "19.072265625000004"
      }
    },
    {
      "id": "2cf8",
      "cityName": "Roches",
      "country": "France",
      "emoji": "ðŸ‡«ðŸ‡·",
      "date": "2024-10-13T18:53:28.000Z",
      "notes": "test",
      "latitude": "46.27483447871404",
      "longitude": "1.9775390625000002",
      "position": {
        "lat": "46.27483447871404",
        "lng": "1.9775390625000002"
      }
    }
  ]
}