{
  "cities": [
    {
      "cityName": "Lisbon",
      "country": "Portugal",
      "emoji": "ðŸ‡µðŸ‡¹",
      "date": "2027-10-31T15:59:59.138Z",
      "notes": "My favorite city so far!",
      "position": {
        "lat": 38.727881642324164,
        "lng": -9.140900099907554
      },
      "id": "73930385"
    },
    {
      "cityName": "Madrid",
      "country": "Spain",
      "emoji": "ðŸ‡ªðŸ‡¸",
      "date": "2027-07-15T08:22:53.976Z",
      "notes": "",
      "position": {
        "lat": 40.46635901755316,
        "lng": -3.7133789062500004
      },
      "id": "17806751"
    },
    {
      "cityName": "Berlin",
      "country": "Germany",
      "emoji": "ðŸ‡©ðŸ‡ª",
      "date": "2027-02-12T09:24:11.863Z",
      "notes": "Amazing ðŸ˜ƒ",
      "position": {
        "lat": 52.53586782505711,
        "lng": 13.376933665713324
      },
      "id": "98443197"
    },
    {
      "id": "8fda",
      "cityName": "Bagneux",
      "country": "France",
      "emoji": "ðŸ‡«ðŸ‡·",
      "date": "2025-03-15T18:31:22.151Z",
      "notes": "test",
      "latitude": "46.649436163350245",
      "longitude": "3.2299804687500004",
      "position": {
        "lat": "46.649436163350245",
        "lng": "3.2299804687500004"
      }
    },
    {
      "id": "b521",
      "cityName": "Montjoire",
      "country": "France",
      "emoji": "ðŸ‡«ðŸ‡·",
      "date": "2025-02-23T19:32:16.000Z",
      "notes": "ewewewe",
      "latitude": "43.78695837311561",
      "longitude": "1.5161132812500002",
      "position": {
        "lat": "43.78695837311561",
        "lng": "1.5161132812500002"
      }
    },
    {
      "id": "3f43",
      "cityName": "Lindesberg",
      "country": "Sweden",
      "emoji": "ðŸ‡¸ðŸ‡ª",
      "date": "2025-03-31T18:34:59.000Z",
      "notes": "test",
      "latitude": "59.712097173322924",
      "longitude": "15.468750000000002",
      "position": {
        "lat": "59.712097173322924",
        "lng": "15.468750000000002"
      }
    },
    {
      "id": "ab1c",
      "cityName": "Lugo",
      "country": "Spain",
      "emoji": "ðŸ‡ªðŸ‡¸",
      "date": "2025-03-15T18:37:28.337Z",
      "notes": "test",
      "latitude": "43.03677585761058",
      "longitude": "-7.481689453125001",
      "position": {
        "lat": "43.03677585761058",
        "lng": "-7.481689453125001"
      }
    },
    {
      "id": "4a59",
      "cityName": "Lugo",
      "country": "Spain",
      "emoji": "ðŸ‡ªðŸ‡¸",
      "date": "2025-03-15T18:37:28.337Z",
      "notes": "test",
      "latitude": "43.03677585761058",
      "longitude": "-7.481689453125001",
      "position": {
        "lat": "43.03677585761058",
        "lng": "-7.481689453125001"
      }
    },
    {
      "id": "f3e9",
      "cityName": "Chodow",
      "country": "Poland",
      "emoji": "ðŸ‡µðŸ‡±",
      "date": "2025-03-15T18:42:02.352Z",
      "notes": "terte",
      "latitude": "52.214338608258224",
      "longitude": "19.072265625000004",
      "position": {
        "lat": "52.214338608258224",
        "lng": "19.072265625000004"
      }
    }
  ]
}